[
    {
        "name": "A81758FFFE03BBA2", 
        "LAT": 20.307142,
        "LONG": 63.819620
    },
    {
        "name": "A81758FFFE03BB9B", 
        "LAT": 20.306958,
        "LONG": 63.819515
    },
    {
        "name": "A81758FFFE03BB36", 
        "LAT": 20.307079,
        "LONG": 63.819508
    },
    {
        "name": "A81758FFFE03BB33", 
        "LAT": 20.307048,
        "LONG": 63.819303
    },
    {
        "name": "A81758FFFE03BDB7", 
        "LAT": 20.307063,
        "LONG": 63.819103
    },
    {
        "name": "A81758FFFE03BD32", 
        "LAT": 20.307977,
        "LONG": 63.819009
    },
    {
        "name": "A81758FFFE03BCF1", 
        "LAT": 20.308348,
        "LONG": 63.819005
    },
    {
        "name": "A81758FFFE03BCEF", 
        "LAT": 20.308191,
        "LONG": 63.819007
    },
    {
        "name": "A81758FFFE03BB3A", 
        "LAT": 20.307097,
        "LONG": 63.819828
    }
]